[{"number":"342","City":"ARIEL","name":"Israel","mininame":"IL","returnCountry":"West Bank","returnCity":"Ari'el","lat":"32.105339050293","lon":"35.1921882629395","Confidence":"Medium"},{"number":"679","City":"GRAND PR","name":"Canada","mininame":"CA","returnCountry":"Brazil","returnCity":"Campo Grande","lat":"-20.49727","lon":"-54.59612","Confidence":"Medium"},{"number":"720","City":"SAINTE MARIE","name":"R??union","mininame":"RE","returnCountry":"Reunion","returnCity":"Sainte-Marie","lat":"-20.8970909118652","lon":"55.5499000549316","Confidence":"High"},{"number":"1736","City":"PARIS ISLAND","name":"United States","mininame":"US","returnCountry":"France","returnCity":"Paris","lat":"48.8572082519531","lon":"2.34143996238708","Confidence":"Medium"},{"number":"1883","City":"SAN MARINO","name":"Italy","mininame":"IT","returnCountry":"San Marino","returnCity":"","lat":"43.9381713867188","lon":"12.4635076522827","Confidence":"High"},{"number":"2059","City":"RAFAEL","name":"United States","mininame":"US","returnCountry":"Chile","returnCity":"La Florida","lat":"-33.56535","lon":"-70.60052","Confidence":"High"},{"number":"2780","City":"ROAD TOWN","name":"Virgin Islands (British)","mininame":"VG","returnCountry":"British Virgin Islands","returnCity":"Road Town","lat":"18.4287796020508","lon":"-64.6132431030273","Confidence":"High"},{"number":"2790","City":"BELFAST","name":"Ireland","mininame":"IE","returnCountry":"United Kingdom","returnCity":"Belfast","lat":"54.5953407287598","lon":"-5.9345498085022","Confidence":"High"},{"number":"3370","City":"SAINT-PIERRE","name":"R??union","mininame":"RE","returnCountry":"Saint Pierre and Miquelon","returnCity":"","lat":"46.9514999389648","lon":"-56.3247451782227","Confidence":"High"},{"number":"3386","City":"FORT ST","name":"Canada","mininame":"CA","returnCountry":"United States","returnCity":"Detroit","lat":"42.2627109424588","lon":"-83.1664070089722","Confidence":"Low"},{"number":"3445","City":"ST JACOB","name":"Canada","mininame":"CA","returnCountry":"United States","returnCity":"St Jacob","lat":"38.7161712646484","lon":"-89.7683792114258","Confidence":"High"},{"number":"4032","City":"\"SCHAANWALD","name":" FL\"","mininame":"Switzerland","returnCountry":"CH","returnCity":"Liechtenstein","lat":"Schaanwald","lon":"47.211238861084","Confidence":"9.56208992004395","undefined":"High"},{"number":"4193","City":"PORT MMORESBY","name":"Australia","mininame":"AU","returnCountry":"Papua New Guinea","returnCity":"Port Moresby","lat":"-9.4559497833252","lon":"147.20393371582","Confidence":"Medium"},{"number":"4333","City":"Lauder-Königshofen","name":"Germany","mininame":"DE","returnCountry":"United Kingdom","returnCity":"Lauder","lat":"55.7201309204102","lon":"-2.75010991096497","Confidence":"Medium"},{"number":"4437","City":"TORRE DEL SEGRE","name":"Spain","mininame":"ES","returnCountry":"Switzerland","returnCity":"","lat":"46.6560554504395","lon":"9.62863540649414","Confidence":"Medium"},{"number":"4713","City":"HOHNHART","name":"Austria","mininame":"AT","returnCountry":"Australia","returnCity":"Canberra","lat":"-35.20728","lon":"149.00431","Confidence":"High"},{"number":"4904","City":"BRONFIELD","name":"United States","mininame":"US","returnCountry":"South Africa","returnCity":"Sol Plaatjie","lat":"-28.63454","lon":"24.80078","Confidence":"Medium"},{"number":"5094","City":"TORREJON DE  CALZADA","name":"Spain","mininame":"ES","returnCountry":"Germany","returnCity":"","lat":"51.1218070983887","lon":"10.4006948471069","Confidence":"Medium"},{"number":"5121","City":"D RAPPU 66","name":"Finland","mininame":"FI","returnCountry":"United States","returnCity":"Leetsdale","lat":"40.5664127489213","lon":"-80.2101090982529","Confidence":"Low"},{"number":"5229","City":"\"LOS FRAILES","name":" GUAYNABO\"","mininame":"United States","returnCountry":"US","returnCity":"Puerto Rico","lat":"Guaynabo","lon":"18.37935","Confidence":"-66.10249","undefined":"Medium"},{"number":"5651","City":"AKWESASNE","name":"Canada","mininame":"CA","returnCountry":"United States","returnCity":"Akwesasne","lat":"44.9711112976074","lon":"-74.6419372558594","Confidence":"High"},{"number":"6824","City":"FOREST H","name":"United States","mininame":"US","returnCountry":"United Kingdom","returnCity":"Chislehurst","lat":"51.40655","lon":"0.0574","Confidence":"Medium"},{"number":"6883","City":"Woodville Garden","name":"Australia","mininame":"AU","returnCountry":"United States","returnCity":"Woodville","lat":"30.7753505706787","lon":"-94.4143218994141","Confidence":"Medium"},{"number":"7015","City":"FREIBURG I. BREISGAU","name":"Germany","mininame":"DE","returnCountry":"Switzerland","returnCity":"Fribourg","lat":"46.8038215637207","lon":"7.1535701751709","Confidence":"High"},{"number":"7829","City":"SAN JOSE DE RICON","name":"Spain","mininame":"ES","returnCountry":"Mexico","returnCity":"","lat":"19.6611595153809","lon":"-100.151992797852","Confidence":"Medium"},{"number":"7870","City":"BAYAMON GARDENS","name":"United States","mininame":"US","returnCountry":"Puerto Rico","returnCity":"Bayamón","lat":"18.3940906524658","lon":"-66.1473770141602","Confidence":"Medium"},{"number":"8105","City":"SOMERVILLE","name":"Italy","mininame":"IT","returnCountry":"United States","returnCity":"Somerville","lat":"42.3867492675781","lon":"-71.0984497070312","Confidence":"Medium"},{"number":"9007","City":"KINGSHILL","name":"United States","mininame":"US","returnCountry":"South Africa","returnCity":"uMshwathi","lat":"-29.43193","lon":"30.5573","Confidence":"Medium"},{"number":"9043","City":"SAINTE MARIE CÉDEX","name":"R??union","mininame":"RE","returnCountry":"Madagascar","returnCity":"Île Sainte-Marie","lat":"-16.8979091644287","lon":"49.9272308349609","Confidence":"High"},{"number":"9092","City":"BRADFORD WEST","name":"Canada","mininame":"CA","returnCountry":"United Kingdom","returnCity":"Bradford","lat":"53.7957191467285","lon":"-1.75829994678497","Confidence":"Medium"},{"number":"9724","City":"PALMDALE","name":"Bahamas (The)","mininame":"BS","returnCountry":"The Bahamas","returnCity":"Nassau","lat":"25.06672","lon":"-77.32727","Confidence":"High"},{"number":"10341","City":"\"ST PETER PORT","name":" GUERNSEY\"","mininame":"United Kingdom","returnCountry":"GB","returnCity":"Guernsey","lat":"St. Peter Port","lon":"49.4570999145508","Confidence":"-2.53517007827759","undefined":"Medium"},{"number":"10500","City":"GOSIER","name":"Guadeloupe","mininame":"GP","returnCountry":"French-Guadeloupe","returnCity":"Le Gosier","lat":"16.2062492370605","lon":"-61.4948196411133","Confidence":"High"},{"number":"10638","City":"PONTE VE","name":"United States","mininame":"US","returnCountry":"Italy","returnCity":"Venice","lat":"45.43456","lon":"12.33778","Confidence":"Medium"},{"number":"10641","City":"\"ST. HELIER","name":" JERSEY\"","mininame":"United Kingdom","returnCountry":"GB","returnCity":"Jersey","lat":"St. Helier","lon":"49.1842384338379","Confidence":"-2.11108994483948","undefined":"High"},{"number":"11068","City":"GREENLAND BEACH","name":"United States","mininame":"US","returnCountry":"Greenland","returnCity":"","lat":"74.7558135986328","lon":"-41.3941650390625","Confidence":"High"},{"number":"11300","City":"BARCELLONA POZZO DI","name":"Italy","mininame":"IT","returnCountry":"Spain","returnCity":"Barcelona","lat":"41.3880386352539","lon":"2.17001008987427","Confidence":"High"},{"number":"12014","City":"הר חוצבים ירושלים","name":"Israel","mininame":"IL","returnCountry":"","returnCity":"Har Hotsvim","lat":"31.8061008453369","lon":"35.2129402160645","Confidence":"High"},{"number":"12723","City":"OCEAN CI","name":"United States","mininame":"US","returnCountry":"Cote d'Ivoire (Ivory Coast)","returnCity":"Abidjan","lat":"5.25435","lon":"-3.96833","Confidence":"Medium"},{"number":"12810","City":"PETIT BOURG","name":"Guadeloupe","mininame":"GP","returnCountry":"French-Guadeloupe","returnCity":"Petit-Bourg","lat":"16.1879005432129","lon":"-61.5899085998535","Confidence":"High"},{"number":"13266","City":"BEIT SHEMESH","name":"Israel","mininame":"IL","returnCountry":"","returnCity":"Beit Shemesh","lat":"31.7369194030762","lon":"34.9863090515137","Confidence":"Medium"},{"number":"13577","City":"ELLIOT L","name":"Canada","mininame":"CA","returnCountry":"South Africa","returnCity":"Elliot","lat":"-31.3329906463623","lon":"27.8531303405762","Confidence":"Low"},{"number":"14555","City":"SANTIAGO QUERETARO","name":"Mexico","mininame":"MX","returnCountry":"Chile","returnCity":"Vitacura","lat":"-33.39222","lon":"-70.57841","Confidence":"Medium"},{"number":"14722","City":"NORTH VA","name":"Canada","mininame":"CA","returnCountry":"United States","returnCity":"Canada","lat":"38.0315551757812","lon":"-78.5051651000977","Confidence":"Medium"},{"number":"15096","City":"WIEN","name":"Germany","mininame":"DE","returnCountry":"Austria","returnCity":"Vienna","lat":"48.2025413513184","lon":"16.3687992095947","Confidence":"High"},{"number":"15422","City":"BAIE-MAHAULT","name":"France","mininame":"FR","returnCountry":"French-Guadeloupe","returnCity":"Baie-Mahault","lat":"16.2474746704102","lon":"-61.5723342895508","Confidence":"High"},{"number":"15611","City":"SAINT DENIS CEDEX 9","name":"R??union","mininame":"RE","returnCountry":"France","returnCity":"St.-Denis","lat":"48.9399299621582","lon":"2.3554699420929","Confidence":"Medium"},{"number":"15697","City":"OLIVE BR","name":"United States","mininame":"US","returnCountry":"India","returnCity":"Ghaziabad","lat":"28.65832","lon":"77.37849","Confidence":"Medium"},{"number":"15838","City":"LONGYEARBYEN","name":"Norway","mininame":"NO","returnCountry":"Svalbard","returnCity":"Longyearbyen","lat":"78.2170028686523","lon":"15.5500001907349","Confidence":"Medium"},{"number":"15904","City":"SAINT-DAMIEN-DE-BUCK","name":"Canada","mininame":"CA","returnCountry":"Germany","returnCity":"","lat":"51.1218070983887","lon":"10.4006948471069","Confidence":"Medium"},{"number":"15992","City":"CIUDAD DE VILLA DE ALVAREZ","name":"Colombia","mininame":"CO","returnCountry":"Mexico","returnCity":"Villa de Alvarez","lat":"19.2690296173096","lon":"-103.736938476562","Confidence":"High"},{"number":"16055","City":"WATERFORD CITY WATERFORD","name":"United Kingdom","mininame":"GB","returnCountry":"Ireland","returnCity":"Waterford","lat":"52.2496299743652","lon":"-7.11820411682129","Confidence":"High"},{"number":"16283","City":"DEL AZCAPOTZALCO","name":"Mexico","mininame":"MX","returnCountry":"Switzerland","returnCity":"","lat":"46.6560554504395","lon":"9.62863540649414","Confidence":"Medium"},{"number":"16304","City":"FONTENAY-AUX-ROSES","name":"Belgium","mininame":"BE","returnCountry":"France","returnCity":"Fontenay-aux-Roses","lat":"48.7929000854492","lon":"2.28623008728027","Confidence":"High"},{"number":"16511","City":"SAINT BARTHELEMY","name":"Guadeloupe","mininame":"GP","returnCountry":"Saint Barthelemy","returnCity":"Saint-Barthélemy","lat":"17.9016723632812","lon":"-62.8293914794922","Confidence":"High"},{"number":"16616","City":"CHAPEL HILL","name":"Israel","mininame":"IL","returnCountry":"United States","returnCity":"Morrisville","lat":"35.83836","lon":"-78.83052","Confidence":"Low"},{"number":"17163","City":"EXTON","name":"Italy","mininame":"IT","returnCountry":"United States","returnCity":"Exton","lat":"40.0280799865723","lon":"-75.6288375854492","Confidence":"High"},{"number":"17482","City":"VANDOUVRE-LES-NANCY","name":"Switzerland","mininame":"CH","returnCountry":"France","returnCity":"Vandoeuvre-lès-Nancy","lat":"48.6597290039062","lon":"6.17266988754272","Confidence":"High"},{"number":"17769","City":"TESTE-DE-BUCH","name":"France","mininame":"FR","returnCountry":"Germany","returnCity":"Buch","lat":"48.2230186462402","lon":"10.1785898208618","Confidence":"Medium"},{"number":"17822","City":"Colombia","name":"United States","mininame":"US","returnCountry":"Colombia","returnCity":"","lat":"3.90644907951355","lon":"-73.0750274658203","Confidence":"High"},{"number":"17907","City":"FORT ST.","name":"Canada","mininame":"CA","returnCountry":"United States","returnCity":"Detroit","lat":"42.2627109424588","lon":"-83.1664070089722","Confidence":"Low"},{"number":"17985","City":"BAIE-MAHAULT","name":"Guadeloupe","mininame":"GP","returnCountry":"French-Guadeloupe","returnCity":"Baie-Mahault","lat":"16.2474746704102","lon":"-61.5723342895508","Confidence":"High"},{"number":"18250","City":"L0S ANGELES","name":"United States","mininame":"US","returnCountry":"Canada","returnCity":"Niagara-on-the-Lake","lat":"43.039005279541","lon":"-79.3102188110352","Confidence":"High"},{"number":"18778","City":"SAINT PIERRE","name":"R??union","mininame":"RE","returnCountry":"Reunion","returnCity":"Saint-Pierre","lat":"-21.3429508209229","lon":"55.4682998657227","Confidence":"High"},{"number":"19301","City":"ST. PETERSBERG","name":"United States","mininame":"US","returnCountry":"Russia","returnCity":"St Petersburg","lat":"59.9331817626953","lon":"30.3060398101807","Confidence":"High"},{"number":"19407","City":"BLYTHE VALLEY PARK","name":"United Kingdom","mininame":"GB","returnCountry":"United States","returnCity":"Blythe","lat":"33.6103897094727","lon":"-114.5986328125","Confidence":"Medium"},{"number":"19963","City":"VADUZ","name":"Switzerland","mininame":"CH","returnCountry":"Liechtenstein","returnCity":"Vaduz","lat":"47.1387901306152","lon":"9.52163982391357","Confidence":"Medium"},{"number":"20131","City":"LE PORT","name":"R??union","mininame":"RE","returnCountry":"Reunion","returnCity":"Le Port","lat":"-20.9348297119141","lon":"55.2987403869629","Confidence":"High"},{"number":"20472","City":"del.Tlalpan","name":"Mexico","mininame":"MX","returnCountry":"Switzerland","returnCity":"","lat":"46.6560554504395","lon":"9.62863540649414","Confidence":"Medium"},{"number":"21151","City":"HAPPY VA","name":"Canada","mininame":"CA","returnCountry":"United States","returnCity":"Canada","lat":"38.0315551757812","lon":"-78.5051651000977","Confidence":"Medium"},{"number":"21410","City":"CARTAGENA NAVAL","name":"Spain","mininame":"ES","returnCountry":"Colombia","returnCity":"Cartagena","lat":"10.4250497817993","lon":"-75.5383682250977","Confidence":"Medium"},{"number":"22043","City":"NTRA SEÑORA DE JESUS","name":"Spain","mininame":"ES","returnCountry":"Germany","returnCity":"","lat":"51.1218070983887","lon":"10.4006948471069","Confidence":"Medium"},{"number":"22526","City":"GUERNSEY","name":"Guernsey","mininame":"GG","returnCountry":"United States","returnCity":"Guernsey","lat":"40.1817207336426","lon":"-81.5927886962891","Confidence":"High"},{"number":"22581","City":"DEL. AZCAPOTZALCO","name":"Mexico","mininame":"MX","returnCountry":"Switzerland","returnCity":"","lat":"46.6560554504395","lon":"9.62863540649414","Confidence":"Medium"},{"number":"22908","City":"\"ST SAVIOUR","name":" JERSEY CHANNEL ISLANDS\"","mininame":"United Kingdom","returnCountry":"GB","returnCity":"Jersey","lat":"St. Saviour","lon":"49.1887626647949","Confidence":"-2.08857202529907","undefined":"High"},{"number":"22938","City":"LA MEJOSTILLA","name":"Spain","mininame":"ES","returnCountry":"United States","returnCity":"Los Angeles","lat":"34.0534896850586","lon":"-118.245323181152","Confidence":"Medium"},{"number":"23217","City":"GREAT BE","name":"United States","mininame":"US","returnCountry":"Belgium","returnCity":"Chastre","lat":"50.5815","lon":"4.64641","Confidence":"Medium"},{"number":"23256","City":"\"ROAD TOWN","name":" VG\"","mininame":"Virgin Islands (British)","returnCountry":"VG","returnCity":"British Virgin Islands","lat":"Road Town","lon":"18.4287796020508","Confidence":"-64.6132431030273","undefined":"Medium"},{"number":"23597","City":"LE LAMENTIN","name":"France","mininame":"FR","returnCountry":"French-Martinique","returnCity":"Le Lamentin","lat":"14.6190595626831","lon":"-60.9946212768555","Confidence":"High"},{"number":"24101","City":"PARTIDO DE VICENTE L","name":"Argentina","mininame":"AR","returnCountry":"Germany","returnCity":"","lat":"51.1218070983887","lon":"10.4006948471069","Confidence":"Medium"},{"number":"24110","City":"NUESTRA SRA DE JESUS","name":"Spain","mininame":"ES","returnCountry":"Germany","returnCity":"","lat":"51.1218070983887","lon":"10.4006948471069","Confidence":"Medium"},{"number":"24157","City":"SAINT-LA","name":"Canada","mininame":"CA","returnCountry":"United States","returnCity":"La Cañada Flintridge","lat":"34.2076606750488","lon":"-118.207252502441","Confidence":"High"},{"number":"24390","City":"MISSIISA","name":"Canada","mininame":"CA","returnCountry":"United States","returnCity":"Canada","lat":"38.3572311401367","lon":"-97.1050720214844","Confidence":"Medium"},{"number":"24433","City":"DEL.ALVARO OBREGON","name":"Mexico","mininame":"MX","returnCountry":"Switzerland","returnCity":"","lat":"46.6560554504395","lon":"9.62863540649414","Confidence":"Medium"},{"number":"24515","City":"MUNI CONEJOS ATOTO TULA","name":"Mexico","mininame":"MX","returnCountry":"Mozambique","returnCity":"Atoto","lat":"-12.8844404220581","lon":"39.8677787780762","Confidence":"Medium"},{"number":"24926","City":"del. Benito juarez","name":"Mexico","mininame":"MX","returnCountry":"Switzerland","returnCity":"","lat":"46.6560554504395","lon":"9.62863540649414","Confidence":"Medium"},{"number":"25305","City":"HAMELET ISRAEL CANADA","name":"Israel","mininame":"IL","returnCountry":"Canada","returnCity":"","lat":"62.5360412597656","lon":"-96.3883514404297","Confidence":"High"},{"number":"25869","City":"SILVER S","name":"United States","mininame":"US","returnCountry":"South Africa","returnCity":"Pretoria","lat":"-25.73424","lon":"28.29276","Confidence":"Medium"},{"number":"26321","City":"Ario","name":"Mexico","mininame":"MX","returnCountry":"","returnCity":"","lat":"","lon":"","Confidence":""},{"number":"26357","City":"SYLVAN L","name":"Canada","mininame":"CA","returnCountry":"France","returnCity":"Sainte-Marie-au-Bosc","lat":"49.6645698547363","lon":"0.206400007009506","Confidence":"Low"},{"number":"26399","City":"RICHMOND EAST","name":"Australia","mininame":"AU","returnCountry":"United States","returnCity":"Richmond","lat":"37.540699005127","lon":"-77.4336471557617","Confidence":"High"},{"number":"26689","City":"MIAM","name":"United States","mininame":"US","returnCountry":"South Korea","returnCity":"JEUNGPYEONGGUN","lat":"36.795103","lon":"127.592575","Confidence":"High"},{"number":"26866","City":"Mount St Thomas","name":"Australia","mininame":"AU","returnCountry":"US Virgin Islands","returnCity":"","lat":"18.3330001831055","lon":"-64.9169998168945","Confidence":"Medium"},{"number":"26871","City":"TO","name":"Canada","mininame":"CA","returnCountry":"Spain","returnCity":"El Casar de Escalona","lat":"40.0683517456055","lon":"-4.54222011566162","Confidence":"Low"},{"number":"26963","City":"19 MAYIS MAH.","name":"Turkey","mininame":"TR","returnCountry":"United States","returnCity":"Monticello","lat":"30.4263928021811","lon":"-83.7716339447973","Confidence":"Medium"},{"number":"27314","City":"ST-ANNE DE BELLEVUE","name":"Canada","mininame":"CA","returnCountry":"United States","returnCity":"St Anne","lat":"41.0212287902832","lon":"-87.7230911254883","Confidence":"Medium"},{"number":"28647","City":"SAINT-MARTIN","name":"France","mininame":"FR","returnCountry":"St Martin","returnCity":"","lat":"18.0795478820801","lon":"-63.0621299743652","Confidence":"High"},{"number":"29149","City":"Mt St Thomas","name":"Australia","mininame":"AU","returnCountry":"United States","returnCity":"","lat":"47.0334815979004","lon":"-109.645080566406","Confidence":"Medium"},{"number":"29388","City":"BET SHEMESH","name":"Israel","mininame":"IL","returnCountry":"","returnCity":"Beit Shemesh","lat":"31.7369194030762","lon":"34.9863090515137","Confidence":"Medium"},{"number":"29688","City":"WILLOWGROVE","name":"United States","mininame":"US","returnCountry":"Canada","returnCity":"Surrey","lat":"49.19294","lon":"-122.76411","Confidence":"Medium"},{"number":"30001","City":"HOLLY SP","name":"United States","mininame":"US","returnCountry":"Brazil","returnCity":"Nova Friburgo","lat":"-22.30902","lon":"-42.53618","Confidence":"Medium"},{"number":"30233","City":"Freiburg/Breisgau","name":"Germany","mininame":"DE","returnCountry":"Switzerland","returnCity":"Fribourg","lat":"46.8038215637207","lon":"7.1535701751709","Confidence":"High"},{"number":"30623","City":"51 STOCKHOLM","name":"Sweden","mininame":"SE","returnCountry":"United States","returnCity":"New Sweden","lat":"47.0123201343437","lon":"-68.1430588414302","Confidence":"High"},{"number":"30678","City":"Del. Tlalpan","name":"Mexico","mininame":"MX","returnCountry":"Switzerland","returnCity":"","lat":"46.6560554504395","lon":"9.62863540649414","Confidence":"Medium"},{"number":""}]